{
  "shelters": [
    {
      "name": "Centro de Convenciones",
      "lat": 18.4663,
      "lng": -66.1057,
      "capacity": 500,
      "address": "San Juan",
      "status": "available"
    },
    {
      "name": "Coliseo Roberto Clemente",
      "lat": 18.4396,
      "lng": -66.0644,
      "capacity": 1000,
      "address": "San Juan",
      "status": "available"
    },
    {
      "name": "Escuela Superior Emilio R. Delgado",
      "lat": 18.2208,
      "lng": -66.5901,
      "capacity": 300,
      "address": "Corozal",
      "status": "available"
    },
    {
      "name": "Centro Comunal de Ponce",
      "lat": 18.0110,
      "lng": -66.6140,
      "capacity": 400,
      "address": "Ponce",
      "status": "available"
    },
    {
      "name": "Escuela Superior de Mayagüez",
      "lat": 18.2013,
      "lng": -67.1397,
      "capacity": 350,
      "address": "Mayagüez",
      "status": "available"
    },
    {
      "name": "Coliseo de Arecibo",
      "lat": 18.4728,
      "lng": -66.7202,
      "capacity": 800,
      "address": "Arecibo",
      "status": "available"
    },
    {
      "name": "Centro Gubernamental de Bayamón",
      "lat": 18.3989,
      "lng": -66.1608,
      "capacity": 600,
      "address": "Bayamón",
      "status": "available"
    },
    {
      "name": "Escuela Inés María Mendoza",
      "lat": 18.4248,
      "lng": -65.8247,
      "capacity": 250,
      "address": "Carolina",
      "status": "available"
    },
    {
      "name": "Centro Comunal de Caguas",
      "lat": 18.2342,
      "lng": -66.0356,
      "capacity": 450,
      "address": "Caguas",
      "status": "available"
    },
    {
      "name": "Coliseo Manuel Iguina Reyes",
      "lat": 18.0180,
      "lng": -66.3706,
      "capacity": 700,
      "address": "Guayama",
      "status": "available"
    }
  ],
  "last_updated": "2025-10-27T00:00:00Z"
}
