{"shelters": [{"name": "Centro de Convenciones", "lat": 18.4663, "lng": -66.1057, "capacity": 500, "address": "San Juan", "status": "available"}, {"name": "Coliseo Roberto Clemente", "lat": 18.4396, "lng": -66.0644, "capacity": 1000, "address": "San Juan", "status": "available"}, {"name": "Escuela Superior Emilio R. Delgado", "lat": 18.2208, "lng": -66.5901, "capacity": 300, "address": "Corozal", "status": "available"}, {"name": "Centro Comunal de Ponce", "lat": 18.011, "lng": -66.614, "capacity": 400, "address": "Ponce", "status": "available"}, {"name": "Escuela Superior de Mayag\u00fcez", "lat": 18.2013, "lng": -67.1397, "capacity": 350, "address": "Mayag\u00fcez", "status": "available"}, {"name": "Coliseo de Arecibo", "lat": 18.4728, "lng": -66.7202, "capacity": 800, "address": "Arecibo", "status": "available"}, {"name": "Centro Gubernamental de Bayam\u00f3n", "lat": 18.3989, "lng": -66.1608, "capacity": 600, "address": "Bayam\u00f3n", "status": "available"}, {"name": "Escuela In\u00e9s Mar\u00eda Mendoza", "lat": 18.4248, "lng": -65.8247, "capacity": 250, "address": "Carolina", "status": "available"}, {"name": "Centro Comunal de Caguas", "lat": 18.2342, "lng": -66.0356, "capacity": 450, "address": "Caguas", "status": "available"}, {"name": "Coliseo Manuel Iguina Reyes", "lat": 18.018, "lng": -66.3706, "capacity": 700, "address": "Guayama", "status": "available"}], "last_updated": "2026-02-21T01:22:50.486513"}